{
  "events": [
    {
      "externalId": "nyc-evt-001",
      "title": "USA vs Mexico Watch Party — Times Square",
      "kind": "fan_zone",
      "lat": 40.758,
      "lon": -73.9855,
      "startTime": "2026-06-11T19:30:00Z",
      "matchId": "wc2026-001",
      "estAttendance": 1200
    },
    {
      "externalId": "nyc-evt-002",
      "title": "Argentina vs Croatia Viewing Party — Astoria",
      "kind": "viewing_party",
      "lat": 40.7644,
      "lon": -73.9235,
      "startTime": "2026-06-12T17:30:00Z",
      "matchId": "wc2026-002",
      "estAttendance": 600
    },
    {
      "externalId": "nyc-evt-003",
      "title": "England vs USA Community Watch — Greenwich Village",
      "kind": "community_watch",
      "lat": 40.7336,
      "lon": -74.0027,
      "startTime": "2026-06-13T18:30:00Z",
      "matchId": "wc2026-003",
      "estAttendance": 280
    },
    {
      "externalId": "nyc-evt-004",
      "title": "Brazil vs Portugal Fan Zone — Little Brazil",
      "kind": "fan_zone",
      "lat": 40.755,
      "lon": -73.982,
      "startTime": "2026-06-14T20:30:00Z",
      "matchId": "wc2026-004",
      "estAttendance": 500
    },
    {
      "externalId": "nyc-evt-005",
      "title": "Mexico vs England Watch Party — East Harlem",
      "kind": "viewing_party",
      "lat": 40.7957,
      "lon": -73.9389,
      "startTime": "2026-06-17T18:30:00Z",
      "matchId": "wc2026-007",
      "estAttendance": 540
    },
    {
      "externalId": "nyc-evt-006",
      "title": "World Cup Final Watch Party — Central Park SummerStage",
      "kind": "fan_zone",
      "lat": 40.7711,
      "lon": -73.9683,
      "startTime": "2026-07-12T18:30:00Z",
      "matchId": "wc2026-012",
      "estAttendance": 1800
    }
  ]
}
